{"ABC Stores": [{"name": "ABC Stores", "hours": "9am – 9pm", "location": "Street Level 1, near Centerstage", "logo": "https://gizmostorageprod.blob.core.windows.net/tenant-logos/1615937914061-abcstores.png"}, {"name": "ABC Stores", "hours": "9am – 8pm", "location": "Street Level 1, in the Ewa Wing", "logo": "https://gizmostorageprod.blob.core.windows.net/tenant-logos/1615937946329-abcstores.png"}], "Abercrombie & Fitch": [{"name": "Abercrombie & Fitch", "hours": "10am – 8pm", "location": "Level 3, near Neiman Marcus", "logo": "https://placewise.imgix.net/images/api/stores/380.svg"}], "Aēsop": [{"name": "Aēsop", "hours": "10am – 8pm", "location": "Mall Level 2, near Macy's", "logo": "https://gizmostorageprod.blob.core.windows.net/tenant-logos/1597705044914-aesop%20logo.png"}], "Agave And Vine": [{"name": "Agave And Vine", "hours": "11am – 10pm", "location": "Mall Level 2, in The Lanai", "logo": "https://assets.digitalservices.ggp.com/content/dam/rw-2/images/tenant-images/tenant-logos/agave-vine-553x260-v21.png"}], "Ahi & Vegetable": [{"name": "Ahi & Vegetable", "hours": "9am – 8pm", "location": "Mall Level 2, in The Lanai", "logo": "/etc/clientlibs/ggpcorp-malls/assets/directory/carry-out.svg"}], "Aja Sushi & Bento": [{"name": "Aja Sushi & Bento", "hours": "9am – 6pm", "location": "Street Level 1, in Makai Market Food Court", "logo": "/etc/clientlibs/ggpcorp-malls/assets/directory/carry-out.svg"}], "Ala Moana Poi Bowl": [{"name": "Ala Moana Poi Bowl", "hours": "9am – 8pm", "location": "Street Level 1, near Makai Market Food Court", "logo": "/etc/clientlibs/ggpcorp-malls/assets/directory/carry-out.svg"}], "Alexander Mcqueen": [{"name": "Alexander Mcqueen", "hours": "10am – 8pm", "location": "Mall Level 2, in the Ewa Wing", "logo": "https://assets.digitalservices.ggp.com/content/dam/rw-2/images/tenant-images/tenant-logos/alexander-mcqueen-logo-553x260-v1.png"}], "The Alley": [{"name": "The Alley", "hours": "11am – 9pm", "location": "Mall Level 2, in the Ewa Wing", "logo": "/etc/clientlibs/ggpcorp-malls/assets/directory/carry-out.svg"}], "Aloha Dry Cleaners And Laundry": [{"name": "Aloha Dry Cleaners And Laundry", "hours": "11am – 7pm", "location": "Street Level 1, near Macy's", "logo": "https://gizmostorageprod.blob.core.windows.net/tenant-logos/1658192953454-ADCL%20logo.jpg"}], "Aloha Lane": [{"name": "Aloha Lane", "hours": "11am – 7pm", "location": "Street Level 1, near Old Navy", "logo": "https://assets.digitalservices.ggp.com/content/dam/rw-2/images/tenant-images/tenant-logos/aloha-lane-logo-v1.png"}], "Al Phillips the Cleaner": [{"name": "Al Phillips the Cleaner", "hours": "6:30am – 8pm", "location": "Street Level 1, in the Ewa Wing", "logo": "https://assets.digitalservices.ggp.com/content/dam/rw-2/images/tenant-images/tenant-logos/Bunny-logo-553x260-v1.png"}], "American Eagle Outfitters": [{"name": "American Eagle Outfitters", "hours": "10am – 8pm", "location": "Level 3, in the Ewa Wing", "logo": "https://placewise.imgix.net/images/api/retailhubjs/467ed6fe0951a49572064dde41aca8da"}], "Amy's Hallmark": [{"name": "Amy's Hallmark", "hours": "10am – 8pm", "location": "Level 3, in the Ewa Wing", "logo": "https://placewise.imgix.net/images/api/stores/703.svg"}], "Anthropologie": [{"name": "Anthropologie", "hours": "11am – 7pm", "location": "Level 3, near Neiman Marcus", "logo": "https://placewise.imgix.net/images/api/stores/2137020339.svg"}], "Apm Monaco": [{"name": "Apm Monaco", "hours": "11am – 7pm", "location": "Mall Level 2, in the Ewa Wing", "logo": "https://gizmostorageprod.blob.core.windows.net/tenant-logos/1594332951496-APM%20Monaco%20Logo.jpg"}], "Apple": [{"name": "Apple", "hours": "10am – 8pm", "location": "Mall Level 2, near Macy's", "logo": "https://placewise.imgix.net/images/api/stores/10327.svg"}], "AQUA BLU": [{"name": "AQUA BLU", "hours": "10am – 10pm", "location": "Level 3, in the Ewa Wing", "logo": "https://assets.digitalservices.ggp.com/content/dam/rw-2/images/tenant-images/tenant-logos/aqua-blu-logo-553x260-v1.png"}], "Aritzia": [{"name": "Aritzia", "hours": "10am – 8pm", "location": "Mall Level 2, in the Ewa Wing", "logo": "https://gizmostorageprod.blob.core.windows.net/tenant-logos/1610044848337-Aritzia-Logo-REGULAR-Final.jpg"}], "Around The Pearl": [{"name": "Around The Pearl", "hours": "11am – 2:30pm; 4:30pm – 8pm", "location": "Mall Level 2, near Target", "logo": "/etc/clientlibs/ggpcorp-malls/assets/directory/carry-out.svg"}], "Assaggio": [{"name": "Assaggio", "hours": "11am – 2:30pm; 4:30pm – 8pm", "location": "Street Level 1, near Macy's", "logo": "/etc/clientlibs/ggpcorp-malls/assets/directory/carry-out.svg"}], "AT&T": [{"name": "AT&T", "hours": "10am – 8pm", "location": "Street Level 1, near Centerstage", "logo": "https://placewise.imgix.net/images/api/retailhubjs/4a035067bbae402d523f151cc89c26fd"}], "Auntie Anne's": [{"name": "Auntie Anne's", "hours": "11am – 7pm", "location": "Street Level 1, in Makai Market Food Court", "logo": "/etc/clientlibs/ggpcorp-malls/assets/directory/carry-out.svg"}], "Bae Beauty Hi": [{"name": "Bae Beauty Hi", "hours": "10am – 8pm", "location": "Street Level 1, near Macy's", "logo": "https://gizmostorageprod.blob.core.windows.net/tenant-logos/1615934194333-balenciaga-logo-1.png"}], "Balenciaga": [{"name": "Balenciaga", "hours": "11am – 7pm", "location": "Mall Level 2, in the Ewa Wing", "logo": "https://gizmostorageprod.blob.core.windows.net/tenant-logos/1615934194333-balenciaga-logo-1.png"}], "Bally": [{"name": "Bally", "hours": "9:30am – 9pm", "location": "Mall Level 2, near Macy's", "logo": "https://placewise.imgix.net/images/api/retailhubjs/97bd76329546dad6dc34754fd0a29365"}], "The Bar": [{"name": "The Bar", "hours": "12pm – 8pm", "location": "Inside Foodland Farms", "logo": "https://placewise.imgix.net/images/api/stores/2137060504.svg"}], "bareMinerals": [{"name": "bareMinerals", "hours": "11am – 7pm", "location": "Mall Level 2, near Target", "logo": "https://placewise.imgix.net/images/api/stores/2137060504.svg"}], "Barnes & Noble Booksellers": [{"name": "Barnes & Noble Booksellers", "hours": "10am – 9pm", "location": "Anchor Store", "logo": "https://placewise.imgix.net/images/api/stores/225.svg"}], "Barnes & Noble Café": [{"name": "Barnes & Noble Café", "hours": "10am – 9pm", "location": "Inside Barnes & Noble Booksellers", "logo": "/etc/clientlibs/ggpcorp-malls/assets/directory/carry-out.svg"}], "Bath & Body Works": [{"name": "Bath & Body Works", "hours": "10am – 9pm", "location": "Mall Level 2, near Macy's", "logo": "https://placewise.imgix.net/images/api/stores/3.svg"}], "Ben Bridge Jeweler": [{"name": "Ben Bridge Jeweler", "hours": "10am – 7pm", "location": "Mall Level 2, near Macy's", "logo": "https://placewise.imgix.net/images/api/retailhubjs/e5102aca8047112c6e61df58197158e8"}], "Ben Bridge Timeworks": [{"name": "Ben Bridge Timeworks", "hours": "10am – 7pm", "location": "Mall Level 2, in the Ewa Wing", "logo": "/etc/clientlibs/ggpcorp-malls/assets/directory/carry-out.svg"}], "Big Island Candies": [{"name": "Big Island Candies", "hours": "10am – 7pm", "location": "Street Level 1, near Centerstage", "logo": "/etc/clientlibs/ggpcorp-malls/assets/directory/carry-out.svg"}], "Bloomingdale's": [{"name": "Bloomingdale's", "hours": "11am – 8pm", "location": "Anchor Store", "logo": "https://assets.digitalservices.ggp.com/content/dam/rw-2/images/tenant-images/tenant-logos/bloomingdales-logo-553x260-v1.png"}], "Blue Hawaii Lifestyle": [{"name": "Blue Hawaii Lifestyle", "hours": "11am – 6pm", "location": "Mall Level 2, near Target", "logo": "/etc/clientlibs/ggpcorp-malls/assets/directory/carry-out.svg"}], "Body Play": [{"name": "Body Play", "hours": "11am – 7pm", "location": "Street Level 1", "logo": "https://placewise.imgix.net/images/api/stores/1921.svg"}, {"name": "Body Play", "hours": "11am – 7pm", "location": "Street Level 1", "logo": "https://placewise.imgix.net/images/api/stores/1921.svg"}], "The Body Shop": [{"name": "The Body Shop", "hours": "11am – 7pm", "location": "Street Level 1, near Centerstage", "logo": "https://placewise.imgix.net/images/api/stores/1921.svg"}], "Bottega Veneta": [{"name": "Bottega Veneta", "hours": "11am – 7pm", "location": "Mall Level 2, near Neiman Marcus", "logo": "https://assets.digitalservices.ggp.com/content/dam/rw-2/images/tenant-images/tenant-logos/bottega-veneta-logo-553x260-v1.png"}], "BoxLunch": [{"name": "BoxLunch", "hours": "10am – 8pm", "location": "Level 3, in the Ewa Wing", "logo": "https://images.shoptopia.com/mcache/450/store/2137064563"}], "Brandy Melville": [{"name": "Brandy Melville", "hours": "11am – 7pm", "location": "Level 3, in the Ewa Wing", "logo": "https://placewise.imgix.net/images/api/retailhubjs/f9c0aef5eb4c2b858a76681d2419b21b"}], "Brighton Collectibles": [{"name": "Brighton Collectibles", "hours": "10am – 8pm", "location": "Level 3, near Target", "logo": "https://placewise.imgix.net/images/api/stores/5415.svg"}], "Brug": [{"name": "Brug", "hours": "9am – 6pm", "location": "Mall Level 2, in The Lanai", "logo": "/etc/clientlibs/ggpcorp-malls/assets/directory/carry-out.svg"}], "BRUG Hokkaido Bakery": [{"name": "BRUG Hokkaido Bakery", "hours": "8am – 6pm", "location": "Street Level 1, near Centerstage", "logo": "/etc/clientlibs/ggpcorp-malls/assets/directory/carry-out.svg"}], "Brunello Cucinelli": [{"name": "Brunello Cucinelli", "hours": "10am – 8pm", "location": "Mall Level 2, in the Ewa Wing", "logo": "https://gizmostorageprod.blob.core.windows.net/tenant-logos/1586484780201-BRUNELLO_08__PantCoolGrey10-resized.jpg"}], "Buffalo Wild Wings": [{"name": "Buffalo Wild Wings", "hours": "11am – 1am", "location": "Level 3, near Target", "logo": "/etc/clientlibs/ggpcorp-malls/assets/directory/carry-out.svg"}], "Bulgari": [{"name": "Bulgari", "hours": "10am – 8pm", "location": "Mall Level 2, near Macy's", "logo": "https://gizmostorageprod.blob.core.windows.net/tenant-logos/1581816067950-Bulgari_header-logo.png"}], "Burberry": [{"name": "Burberry", "hours": "10am – 8pm", "location": "Mall Level 2, near Neiman Marcus", "logo": "https://placewise.imgix.net/images/api/stores/1075.svg"}], "California Pizza Kitchen": [{"name": "California Pizza Kitchen", "hours": "11am – 10pm", "location": "Ho'okipa Terrace Upper Level 4, near Macy's", "logo": "/etc/clientlibs/ggpcorp-malls/assets/directory/carry-out.svg"}], "Cartier": [{"name": "Cartier", "hours": "10am – 8pm", "location": "Mall Level 2, near Neiman Marcus", "logo": "https://placewise.imgix.net/images/api/retailhubjs/304c1130bab67cd6cf6f894fe248214b"}], "CELINE": [{"name": "CELINE", "hours": "10am – 8pm", "location": "Mall Level 2, in the Ewa Wing", "logo": "https://assets.digitalservices.ggp.com/content/dam/rw-2/images/tenant-images/tenant-logos/celine-logo-553x260-v2.png"}], "Cellreon": [{"name": "Cellreon", "hours": "9:30am – 9pm", "location": "Mall Level 2, near Target", "logo": "https://placewise.imgix.net/images/api/stores/457.svg"}], "Centerstage": [{"name": "Centerstage", "hours": "9:30am – 9pm", "location": "Anchor Store", "logo": "https://placewise.imgix.net/images/api/stores/457.svg"}], "Champs Sports/Champs Women": [{"name": "Champs Sports/Champs Women", "hours": "10am – 8pm", "location": "Street Level 1, near Macy's", "logo": "https://placewise.imgix.net/images/api/stores/457.svg"}], "Chanel": [{"name": "Chanel", "hours": "10am – 8pm", "location": "Mall Level 2, near Neiman Marcus", "logo": "https://placewise.imgix.net/images/api/retailhubjs/ce522af6364a85b0ad28b4dd9b6a41dc"}], "Chapel Hats": [{"name": "Chapel Hats", "hours": "11am – 7:30pm", "location": "Street Level 1, near Centerstage", "logo": "https://assets.digitalservices.ggp.com/content/dam/ggp-digital-assets/Images/Tenant-Images/Tenant-Logos/Chapel_Hats_553x260.png/jcr:content/renditions/original.png"}], "Charleys Philly Steaks": [{"name": "Charleys Philly Steaks", "hours": "11am – 7pm", "location": "Street Level 1, near Makai Market Food Court", "logo": "/etc/clientlibs/ggpcorp-malls/assets/directory/carry-out.svg"}], "CH Carolina Herrera": [{"name": "CH Carolina Herrera", "hours": "11am – 7pm", "location": "Mall Level 2, in the Ewa Wing", "logo": "https://assets.digitalservices.ggp.com/content/dam/rw-2/images/tenant-images/tenant-logos/carolina-herrera-logo-553x260-v1.png"}], "Cheeseburger Factory": [{"name": "Cheeseburger Factory", "hours": "11am – 7pm", "location": "Street Level 1, in Makai Market Food Court", "logo": "/etc/clientlibs/ggpcorp-malls/assets/directory/carry-out.svg"}], "Chick-fil-A": [{"name": "Chick-fil-A", "hours": "10am – 8pm", "location": "Street Level 1, near Old Navy", "logo": "https://placewise.imgix.net/images/api/stores/779.svg"}, {"name": "Chick-fil-A", "hours": "10am – 8pm", "location": "Street Level 1, near Old Navy", "logo": "https://placewise.imgix.net/images/api/stores/779.svg"}], "CINNABON": [{"name": "CINNABON", "hours": "10am – 8pm", "location": "Street Level 1, in Makai Market Food Court", "logo": "/etc/clientlibs/ggpcorp-malls/assets/directory/carry-out.svg"}], "Claire's": [{"name": "Claire's", "hours": "10am – 8pm", "location": "Level 3, in the Ewa Wing", "logo": "https://placewise.imgix.net/images/api/stores/5112.svg"}], "Coach": [{"name": "Coach", "hours": "11am – 7pm", "location": "Mall Level 2, in the Ewa Wing", "logo": "https://placewise.imgix.net/images/api/stores/603.svg"}], "Cocolini": [{"name": "Cocolini", "hours": "7am – 8pm", "location": "Level 3, near Neiman Marcus", "logo": "/etc/clientlibs/ggpcorp-malls/assets/directory/carry-out.svg"}], "The Coffee Bean & Tea Leaf": [{"name": "The Coffee Bean & Tea Leaf", "hours": "7am – 8pm", "location": "Street Level 1, in Makai Market Food Court", "logo": "/etc/clientlibs/ggpcorp-malls/assets/directory/carry-out.svg"}, {"name": "The Coffee Bean & Tea Leaf", "hours": "10am – 8pm", "location": "Inside Foodland Farms", "logo": "/etc/clientlibs/ggpcorp-malls/assets/directory/carry-out.svg"}], "Cole Haan": [{"name": "Cole Haan", "hours": "10am – 8pm", "location": "Mall Level 2, near Macy's", "logo": "https://placewise.imgix.net/images/api/stores/9162.svg"}], "The Cookie Corner": [{"name": "The Cookie Corner", "hours": "10am – 8pm", "location": "Street Level 1, near Centerstage", "logo": "/etc/clientlibs/ggpcorp-malls/assets/directory/carry-out.svg"}], "Crazy Shirts": [{"name": "Crazy Shirts", "hours": "11am – 7pm", "location": "Level 3, near Neiman Marcus", "logo": "https://placewise.imgix.net/images/api/retailhubjs/c98cef49df3649a0a77e7b1b9281b8e0.jpeg"}], "Crispy Beef Jerky": [{"name": "Crispy Beef Jerky", "hours": "11am – 7pm", "location": "Street Level 1, near Centerstage", "logo": "https://gizmostorageprod.blob.core.windows.net/tenant-logos/1649363200135-HCBJ%201%20Color%20Black%20sm.jpg"}], "Crocs": [{"name": "Crocs", "hours": "11am – 7pm", "location": "Street Level 1, near Centerstage", "logo": "https://placewise.imgix.net/images/api/stores/21370269690.svg"}], "Curry House CoCo Ichibanya": [{"name": "Curry House CoCo Ichibanya", "hours": "11am – 7pm", "location": "Street Level 1, near Makai Market Food Court", "logo": "/etc/clientlibs/ggpcorp-malls/assets/directory/carry-out.svg"}], "Da Spot": [{"name": "Da Spot", "hours": "10am – 8pm", "location": "Mall Level 2, in The Lanai", "logo": "/etc/clientlibs/ggpcorp-malls/assets/directory/carry-out.svg"}], "Dior": [{"name": "Dior", "hours": "10am – 8pm", "location": "Mall Level 2, in the Ewa Wing", "logo": "https://gizmostorageprod.blob.core.windows.net/tenant-logos/1619635806579-dior%20logo.jpg"}], "Dior Cafe": [{"name": "Dior Cafe", "hours": "11am – 7pm", "location": "Mall Level 2, in the Ewa Wing", "logo": "https://assets.digitalservices.ggp.com/content/dam/rw-2/images/tenant-images/tenant-logos/dg-logo-553x260-v1.png"}], "Dolce&Gabbana": [{"name": "Dolce&Gabbana", "hours": "11am – 7pm", "location": "Mall Level 2, in the Ewa Wing", "logo": "https://assets.digitalservices.ggp.com/content/dam/rw-2/images/tenant-images/tenant-logos/dg-logo-553x260-v1.png"}], "E&K Jewelry": [{"name": "E&K Jewelry", "hours": "10am – 7pm", "location": "Street Level 1, near Centerstage", "logo": "https://placewise.imgix.net/images/api/retailhubjs/ee6d3bd2687d1654da3d5d650c101214"}], "Ebar": [{"name": "Ebar", "hours": "8am – 9pm", "location": "Inside Nordstrom", "logo": "https://placewise.imgix.net/images/api/retailhubjs/ee6d3bd2687d1654da3d5d650c101214"}], "Eco Town": [{"name": "Eco Town", "hours": "10am – 8pm", "location": "Street Level 1, near Macy's", "logo": "https://gizmostorageprod.blob.core.windows.net/tenant-logos/1597707707663-eco%20town%20logo.jpg"}], "ELEVEN": [{"name": "ELEVEN", "hours": "Closed Today", "location": "Inside Foodland Farms", "logo": "/etc/clientlibs/ggpcorp-malls/assets/directory/carry-out.svg"}], "Espresso Bar": [{"name": "Espresso Bar", "hours": "11am – 5pm", "location": "Inside Neiman Marcus", "logo": "/etc/clientlibs/ggpcorp-malls/assets/directory/carry-out.svg"}], "Ewa Wing Stage": [{"name": "Ewa Wing Stage", "hours": "9:30am – 7pm", "location": "Mall Level 2, in the Ewa Wing", "logo": "https://gizmostorageprod.blob.core.windows.net/tenant-logos/1655846433321-Search%20For%20Snoopy-live%20AMC.png"}], "The Experience": [{"name": "The Experience", "hours": "9:30am – 7pm", "location": "Level 3, near Neiman Marcus", "logo": "https://gizmostorageprod.blob.core.windows.net/tenant-logos/1655846433321-Search%20For%20Snoopy-live%20AMC.png"}], "The Eye Gallery": [{"name": "The Eye Gallery", "hours": "9:30am – 7pm", "location": "Level 3, near Neiman Marcus", "logo": "https://assets.digitalservices.ggp.com/content/dam/rw-2/images/tenant-images/tenant-logos/eyegallery.png"}], "Eztech Electronics": [{"name": "Eztech Electronics", "hours": "11am – 7pm", "location": "Street Level 1, near Centerstage", "logo": "https://assets.digitalservices.ggp.com/content/dam/rw-2/images/tenant-images/tenant-logos/the-face-shop-logo.png"}], "The Face Shop": [{"name": "The Face Shop", "hours": "11am – 7pm", "location": "Mall Level 2, near Target", "logo": "https://assets.digitalservices.ggp.com/content/dam/rw-2/images/tenant-images/tenant-logos/the-face-shop-logo.png"}], "Famous Footwear": [{"name": "Famous Footwear", "hours": "10am – 8pm", "location": "Street Level 1, near Old Navy", "logo": "https://gizmostorageprod.blob.core.windows.net/tenant-logos/1583269470608-FamousLogo_FullColor.png"}], "Fendi": [{"name": "Fendi", "hours": "10am – 8pm", "location": "Mall Level 2, near Macy's", "logo": "https://placewise.imgix.net/images/api/retailhubjs/5b05a987eadec96d8dc5be054703636c"}], "Foodland Farms": [{"name": "Foodland Farms", "hours": "6am – 9pm", "location": "Street Level 1, near Foodland Farms", "logo": "https://assets.digitalservices.ggp.com/content/dam/rw-2/images/tenant-images/tenant-logos/foodland-farms-logo-553x260-v1.png"}], "Foot Locker": [{"name": "Foot Locker", "hours": "10am – 8pm", "location": "Level 3, in the Ewa Wing", "logo": "https://placewise.imgix.net/images/api/stores/320.svg"}], "Formidables Boutique": [{"name": "Formidables Boutique", "hours": "11am – 8pm", "location": "Street Level 1, near Centerstage", "logo": "https://assets.digitalservices.ggp.com/content/dam/rw-2/images/tenant-images/tenant-logos/forty-carrots-logo-553x260-v1.png"}], "Forty Carrots": [{"name": "Forty Carrots", "hours": "11am – 8pm", "location": "Inside Bloomingdale's", "logo": "https://assets.digitalservices.ggp.com/content/dam/rw-2/images/tenant-images/tenant-logos/forty-carrots-logo-553x260-v1.png"}], "Fossil": [{"name": "Fossil", "hours": "11am – 7pm", "location": "Level 3, in the Ewa Wing", "logo": "https://placewise.imgix.net/images/api/retailhubjs/5b3dd971f101b3f6b044403e4389e2eb"}], "Freaky Tiki Tropical Optical": [{"name": "Freaky Tiki Tropical Optical", "hours": "10am – 8pm", "location": "Street Level 1, near Centerstage", "logo": "https://gizmostorageprod.blob.core.windows.net/tenant-logos/1581739164758-FREAKYTIKILogo.svg"}], "Gap": [{"name": "Gap", "hours": "10am – 8pm", "location": "Level 3, in the Ewa Wing", "logo": "https://placewise.imgix.net/images/api/stores/698.svg"}], "GapKids": [{"name": "GapKids", "hours": "10am – 9pm", "location": "Level 3, in the Ewa Wing", "logo": "https://placewise.imgix.net/images/api/stores/2137026349.svg"}], "Gelato Bar": [{"name": "Gelato Bar", "hours": "10am – 9pm", "location": "Inside Nordstrom", "logo": "/etc/clientlibs/ggpcorp-malls/assets/directory/carry-out.svg"}], "Genki Sushi": [{"name": "Genki Sushi", "hours": "11am – 8pm", "location": "Mall Level 2, in the Ewa Wing", "logo": "/etc/clientlibs/ggpcorp-malls/assets/directory/carry-out.svg"}], "GEN Korean BBQ House": [{"name": "GEN Korean BBQ House", "hours": "10am – 10pm", "location": "Ho'okipa Terrace Upper Level 4, near Macy's", "logo": "/etc/clientlibs/ggpcorp-malls/assets/directory/carry-out.svg"}], "Genova International": [{"name": "Genova International", "hours": "11am – 7pm", "location": "Mall Level 2, near Target", "logo": "https://gizmostorageprod.blob.core.windows.net/tenant-logos/1649103585232-Genova%20Logo.jpg"}], "Giorgio Armani": [{"name": "Giorgio Armani", "hours": "11am – 7pm", "location": "Mall Level 2, near Neiman Marcus", "logo": "https://placewise.imgix.net/images/api/stores/2137048880.svg"}], "GNC": [{"name": "GNC", "hours": "11am – 7pm", "location": "Street Level 1, near Macy's", "logo": "https://placewise.imgix.net/images/api/stores/1931.svg"}], "Golden Eye": [{"name": "Golden Eye", "hours": "10am – 7pm", "location": "Mall Level 2, near Macy's", "logo": "/etc/clientlibs/ggpcorp-malls/assets/directory/carry-out.svg"}], "Goma Tei Ramen": [{"name": "Goma Tei Ramen", "hours": "11am – 9pm", "location": "Street Level 1, near Macy's", "logo": "/etc/clientlibs/ggpcorp-malls/assets/directory/carry-out.svg"}], "GRATiAE": [{"name": "GRATiAE", "hours": "9:30am – 5pm", "location": "Street Level 1, near Centerstage", "logo": "https://gizmostorageprod.blob.core.windows.net/tenant-logos/1581818733224-GRATiEA_logo.png"}], "Gucci": [{"name": "Gucci", "hours": "11am – 7pm", "location": "Mall Level 2, near Neiman Marcus", "logo": "https://placewise.imgix.net/images/api/stores/622.svg"}], "Guest Services": [{"name": "Guest Services", "hours": "11am – 8pm", "location": "Street Level 1, near Centerstage", "logo": "https://placewise.imgix.net/images/api/stores/6401.svg"}], "H.I.S. Hawaii": [{"name": "H.I.S. Hawaii", "hours": "11am – 8pm", "location": "Street Level 1, near Centerstage", "logo": "https://placewise.imgix.net/images/api/retailhubjs/62c4b28322444d5632cdbc12f740d89d.jpeg"}], "Häagen-Dazs": [{"name": "Häagen-Dazs", "hours": "11am – 8pm", "location": "Street Level 1, near Makai Market Food Court", "logo": "https://placewise.imgix.net/images/api/retailhubjs/62c4b28322444d5632cdbc12f740d89d.jpeg"}], "Habitant": [{"name": "Habitant", "hours": "11am – 8pm", "location": "Inside Nordstrom", "logo": "https://gizmostorageprod.blob.core.windows.net/tenant-logos/1581818789612-HappyWahine_Logo-1.png"}], "Happy Wahine Boutique": [{"name": "Happy Wahine Boutique", "hours": "11am – 7pm", "location": "Level 3, in the Ewa Wing", "logo": "https://gizmostorageprod.blob.core.windows.net/tenant-logos/1581818789612-HappyWahine_Logo-1.png"}], "Harry Winston": [{"name": "Harry Winston", "hours": "10am – 8pm", "location": "Mall Level 2, near Neiman Marcus", "logo": "https://placewise.imgix.net/images/api/retailhubjs/f5dd3d516082391544c8a2d18ac309c0.jpeg"}], "Hawaii's Finest": [{"name": "Hawaii's Finest", "hours": "10am – 8pm", "location": "Street Level 1, in the Ewa Wing", "logo": "https://gizmostorageprod.blob.core.windows.net/tenant-logos/1654890093461-HIFI%20SIMPLE%20LOGO-01.png"}], "Hawaiian Island Creations": [{"name": "Hawaiian Island Creations", "hours": "11am – 7pm", "location": "Street Level 1, in the Ewa Wing", "logo": "https://assets.digitalservices.ggp.com/content/dam/rw-2/images/tenant-images/tenant-logos/Hawaiian-Island-Creations-logo.png"}], "Hawaii Vault": [{"name": "Hawaii Vault", "hours": "11am – 7pm", "location": "Street Level 1, near Centerstage", "logo": "https://assets.digitalservices.ggp.com/content/dam/rw-2/images/tenant-images/tenant-logos/health-korea-logo-553x260-v1.png"}], "Health Korea": [{"name": "Health Korea", "hours": "11am – 7pm", "location": "Mall Level 2, near Target", "logo": "https://assets.digitalservices.ggp.com/content/dam/rw-2/images/tenant-images/tenant-logos/health-korea-logo-553x260-v1.png"}], "Hermès": [{"name": "Hermès", "hours": "11am – 7pm", "location": "Mall Level 2, in the Ewa Wing", "logo": "https://gizmostorageprod.blob.core.windows.net/tenant-logos/1581739699694-hermes.svg"}], "Herve Chapelier": [{"name": "Herve Chapelier", "hours": "11am – 7pm", "location": "Mall Level 2, near Macy's", "logo": "https://placewise.imgix.net/images/api/retailhubjs/6ff80c687b2ddc49ff6dc152447a91aa"}], "Hic Surf": [{"name": "Hic Surf", "hours": "10am – 8pm", "location": "Level 3, near Macy's", "logo": "https://assets.digitalservices.ggp.com/content/dam/rw-2/images/tenant-images/tenant-logos/Hawaiian-Island-Creations-logo.png"}], "Hilo Hattie": [{"name": "Hilo Hattie", "hours": "11am – 7pm", "location": "Street Level 1, in the Diamond Head Wing", "logo": "https://gizmostorageprod.blob.core.windows.net/tenant-logos/1581739239969-Hilo_Hattie.svg"}], "Himalayan Kitchen": [{"name": "Himalayan Kitchen", "hours": "11am – 9pm", "location": "Street Level 1, near Macy's", "logo": "https://gizmostorageprod.blob.core.windows.net/tenant-logos/1614824768037-Hiro%20logo.png"}], "Hiro Systems Hawaii": [{"name": "Hiro Systems Hawaii", "hours": "8am – 7pm", "location": "Street Level 1, near Macy's", "logo": "https://gizmostorageprod.blob.core.windows.net/tenant-logos/1614824768037-Hiro%20logo.png"}], "HI Steaks": [{"name": "HI Steaks", "hours": "10am – 8pm", "location": "Inside Foodland Farms", "logo": "/etc/clientlibs/ggpcorp-malls/assets/directory/carry-out.svg"}], "Hitea Cafe": [{"name": "Hitea Cafe", "hours": "10:30am – 7pm", "location": "Mall Level 2, in The Lanai", "logo": "/etc/clientlibs/ggpcorp-malls/assets/directory/carry-out.svg"}], "Ho'āla Salon and Spa - Aveda": [{"name": "Ho'āla Salon and Spa - Aveda", "hours": "9am – 7pm", "location": "Level 3, near Neiman Marcus", "logo": "https://assets.digitalservices.ggp.com/content/dam/rw-2/images/tenant-images/tenant-logos/hoala-logo-553x260-v1.png"}], "Hollister Co.": [{"name": "Hollister Co.", "hours": "10am – 8pm", "location": "Level 3, near Macy's", "logo": "https://placewise.imgix.net/images/api/stores/6328.svg"}], "Homecoming Honolulu": [{"name": "Homecoming Honolulu", "hours": "10am – 6pm", "location": "Level 3, in the Ewa Wing", "logo": "https://gizmostorageprod.blob.core.windows.net/tenant-logos/1659040688744-Honolulu%20Bistro%20Round%20Logo.jpg"}], "Honolulu Bistro": [{"name": "Honolulu Bistro", "hours": "10am – 6pm", "location": "Street Level 1, near Makai Market Food Court", "logo": "https://gizmostorageprod.blob.core.windows.net/tenant-logos/1659040688744-Honolulu%20Bistro%20Round%20Logo.jpg"}], "Honolulu Coffee Co.": [{"name": "Honolulu Coffee Co.", "hours": "10am – 8pm", "location": "Level 3, near Neiman Marcus", "logo": "/etc/clientlibs/ggpcorp-malls/assets/directory/carry-out.svg"}, {"name": "Honolulu Coffee Co.", "hours": "10am – 8pm", "location": "Level 3, in the Ewa Wing", "logo": "/etc/clientlibs/ggpcorp-malls/assets/directory/carry-out.svg"}], "Honolulu Cookie Company": [{"name": "Honolulu Cookie Company", "hours": "10am – 8pm", "location": "Street Level 1, in Makai Market Food Court", "logo": "https://placewise.imgix.net/images/api/retailhubjs/8971d844fa1e65263feb243f146c25b1"}], "Honolulu Satellite City Hall": [{"name": "Honolulu Satellite City Hall", "hours": "9am – 5pm", "location": "Street Level 1, near Macy's", "logo": "https://placewise.imgix.net/images/api/retailhubjs/dcc46eee9b06c66d4219fdd713599c57"}], "Hope And Henry": [{"name": "Hope And Henry", "hours": "11am – 7pm", "location": "Level 3, in the Ewa Wing", "logo": "https://placewise.imgix.net/images/api/retailhubjs/dcc46eee9b06c66d4219fdd713599c57"}], "Hot Topic": [{"name": "Hot Topic", "hours": "11am – 7pm", "location": "Level 3, in the Ewa Wing", "logo": "https://placewise.imgix.net/images/api/stores/801.svg"}], "Hublot": [{"name": "Hublot", "hours": "11am – 7pm", "location": "Mall Level 2, in the Ewa Wing", "logo": "/etc/clientlibs/ggpcorp-malls/assets/directory/carry-out.svg"}], "Illy Caffe": [{"name": "Illy Caffe", "hours": "10:30am – 8pm", "location": "Mall Level 2, in the Ewa Wing", "logo": "/etc/clientlibs/ggpcorp-malls/assets/directory/carry-out.svg"}], "Island Brew Coffeehouse": [{"name": "Island Brew Coffeehouse", "hours": "7:30am – 8pm", "location": "Level 3, in the Ewa Wing", "logo": "/etc/clientlibs/ggpcorp-malls/assets/directory/carry-out.svg"}], "Island Crepes & Lemonade": [{"name": "Island Crepes & Lemonade", "hours": "10am – 7pm", "location": "Street Level 1, in Makai Market Food Court", "logo": "https://assets.digitalservices.ggp.com/content/dam/rw-2/images/tenant-images/tenant-logos/island-crepes-lemonade-logo.png"}], "Island Slipper": [{"name": "Island Slipper", "hours": "10am – 8pm", "location": "Level 3, in the Ewa Wing", "logo": "https://assets.digitalservices.ggp.com/content/dam/rw-2/images/tenant-images/tenant-logos/island-slipper-logo-553x260-v1.png"}], "Island Sole": [{"name": "Island Sole", "hours": "11am – 6pm", "location": "Street Level 1, near Centerstage", "logo": "https://gizmostorageprod.blob.core.windows.net/tenant-logos/1581739204334-island_sole.svg"}], "Island Vintage Coffee": [{"name": "Island Vintage Coffee", "hours": "8am – 8pm", "location": "Street Level 1, near Centerstage", "logo": "/etc/clientlibs/ggpcorp-malls/assets/directory/carry-out.svg"}], "It'sugar": [{"name": "It'sugar", "hours": "11am – 8pm", "location": "Level 3, near Target", "logo": "https://placewise.imgix.net/images/api/retailhubjs/12afdfb4259bca255dfe83854328d3ff"}], "Jade Dynasty Seafood Restaurant": [{"name": "Jade Dynasty Seafood Restaurant", "hours": "10:30am – 9pm", "location": "Ho'okipa Terrace Upper Level 4, near Macy's", "logo": "/etc/clientlibs/ggpcorp-malls/assets/directory/carry-out.svg"}], "Jamba Juice": [{"name": "Jamba Juice", "hours": "9am – 8pm", "location": "Street Level 1, near Centerstage", "logo": "/etc/clientlibs/ggpcorp-malls/assets/directory/carry-out.svg"}, {"name": "Jamba Juice", "hours": "10am – 9pm", "location": "Mall Level 2, in the Ewa Wing", "logo": "/etc/clientlibs/ggpcorp-malls/assets/directory/carry-out.svg"}], "Jams World": [{"name": "Jams World", "hours": "10am – 9pm", "location": "Level 3, near Neiman Marcus", "logo": "https://placewise.imgix.net/images/api/retailhubjs/d4da457fd8fcb5ca60a45ecf2a7b07d6"}], "Jeans Warehouse": [{"name": "Jeans Warehouse", "hours": "10am – 9pm", "location": "Street Level 1, in the Ewa Wing", "logo": "https://placewise.imgix.net/images/api/retailhubjs/af7e23e5e3a899680c0ef823cb76e68f.png"}], "Jejubing Dessert Cafe": [{"name": "Jejubing Dessert Cafe", "hours": "12pm – 8pm", "location": "Street Level 1, near Centerstage", "logo": "/etc/clientlibs/ggpcorp-malls/assets/directory/carry-out.svg"}], "Jimmy Choo": [{"name": "Jimmy Choo", "hours": "11am – 6pm", "location": "Mall Level 2, in the Ewa Wing", "logo": "https://gizmostorageprod.blob.core.windows.net/tenant-logos/1627608398102-Jimmy%20Choo%20Master%20Logo%20Black.jpg"}], "Johnny Was": [{"name": "Johnny Was", "hours": "11am – 7pm", "location": "Mall Level 2, in the Ewa Wing", "logo": "https://placewise.imgix.net/images/api/retailhubjs/aa75ff1e567b611c008778387f8064ae"}], "Jollibee": [{"name": "Jollibee", "hours": "11am – 7pm", "location": "Street Level 1, near Makai Market Food Court", "logo": "/etc/clientlibs/ggpcorp-malls/assets/directory/carry-out.svg"}], "Journeys": [{"name": "Journeys", "hours": "11am – 7pm", "location": "Level 3, near Macy's", "logo": "https://placewise.imgix.net/images/api/stores/2137048313.svg"}], "JTB 'OLI'OLI Station": [{"name": "JTB 'OLI'OLI Station", "hours": "8am – 5pm", "location": "Street Level 1, in the Ewa Wing", "logo": "https://assets.digitalservices.ggp.com/content/dam/rw-2/images/tenant-images/tenant-logos/jtb-logo-553x260-v1.png"}], "JTB USA": [{"name": "JTB USA", "hours": "8am – 5pm", "location": "Street Level 1, in the Ewa Wing", "logo": "https://gizmostorageprod.blob.core.windows.net/tenant-logos/1593133191103-Jungle%20Fun%20Island%20Logo_RGB_No%20Blue%20Background.png"}], "Jungle Fun Island": [{"name": "Jungle Fun Island", "hours": "10am – 8pm", "location": "Street Level 1, near Centerstage", "logo": "https://gizmostorageprod.blob.core.windows.net/tenant-logos/1593133191103-Jungle%20Fun%20Island%20Logo_RGB_No%20Blue%20Background.png"}], "Kahala": [{"name": "Kahala", "hours": "11am – 7pm", "location": "Mall Level 2, near Macy's", "logo": "https://gizmostorageprod.blob.core.windows.net/tenant-logos/1663028129166-Kahala-Logo.jpg"}], "Kahulale'a": [{"name": "Kahulale'a", "hours": "11am – 7pm", "location": "Level 3, near Neiman Marcus", "logo": "https://gizmostorageprod.blob.core.windows.net/tenant-logos/1649875297885-logo.jpg"}], "Kamukura": [{"name": "Kamukura", "hours": "11am – 7pm", "location": "Mall Level 2, in The Lanai", "logo": "https://gizmostorageprod.blob.core.windows.net/tenant-logos/1649183466013-LOGO2.JPG"}], "Kate Spade New York": [{"name": "Kate Spade New York", "hours": "11am – 7pm", "location": "Mall Level 2, in the Ewa Wing", "logo": "https://gizmostorageprod.blob.core.windows.net/tenant-logos/1615597970407-2017%20ksny_logo.jpg"}], "Kawaii Kawaii": [{"name": "Kawaii Kawaii", "hours": "11am – 7pm", "location": "Mall Level 2, in the Ewa Wing", "logo": "https://gizmostorageprod.blob.core.windows.net/tenant-logos/1626229304345-27A5E5E6-79B5-4734-BFA6-D3142D155A51.png"}], "Kay Jewelers": [{"name": "Kay Jewelers", "hours": "11am – 7pm", "location": "Level 3, in the Ewa Wing", "logo": "https://placewise.imgix.net/images/api/retailhubjs/1755a594e1e40e37d73b3a06fd1c254e.png"}], "Koho": [{"name": "Koho", "hours": "11am – 6pm", "location": "Mall Level 2, in the Ewa Wing", "logo": "https://gizmostorageprod.blob.core.windows.net/tenant-logos/1635206131179-Koho_Logo.png%20(1).png"}], "Kpop Friends": [{"name": "Kpop Friends", "hours": "11am – 6pm", "location": "Mall Level 2, near Target", "logo": "https://placewise.imgix.net/images/api/stores/2137039695.svg"}], "L'Occitane": [{"name": "L'Occitane", "hours": "11am – 6pm", "location": "Mall Level 2, in the Ewa Wing", "logo": "https://placewise.imgix.net/images/api/stores/2137039695.svg"}], "Lacoste": [{"name": "Lacoste", "hours": "11am – 7pm", "location": "Level 3, near Neiman Marcus", "logo": "https://placewise.imgix.net/images/api/retailhubjs/e2b15706500483595634fc39468a9b2a"}], "Laha'ole Designs": [{"name": "Laha'ole Designs", "hours": "10am – 8pm", "location": "Street Level 1, near Centerstage", "logo": "https://gizmostorageprod.blob.core.windows.net/tenant-logos/1663002609207-Logo.png"}], "Lahaina Chicken": [{"name": "Lahaina Chicken", "hours": "10am – 7pm", "location": "Street Level 1, near Makai Market Food Court", "logo": "/etc/clientlibs/ggpcorp-malls/assets/directory/carry-out.svg"}], "Laine Honolulu": [{"name": "Laine Honolulu", "hours": "10am – 8pm", "location": "Level 3, in the Ewa Wing", "logo": "https://gizmostorageprod.blob.core.windows.net/tenant-logos/1636490297934-logo.png"}], "Land And Sea Golf": [{"name": "Land And Sea Golf", "hours": "10am – 8pm", "location": "Level 3, in the Ewa Wing", "logo": "https://gizmostorageprod.blob.core.windows.net/tenant-logos/1663198328472-LASG%20Logo.png"}], "The LEGO Store": [{"name": "The LEGO Store", "hours": "10am – 8pm", "location": "Level 3, in the Ewa Wing", "logo": "https://placewise.imgix.net/images/api/stores/2137023663.svg"}], "LensCrafters": [{"name": "LensCrafters", "hours": "9:30am – 8pm", "location": "Ho'okipa Terrace Upper Level 4, near Macy's", "logo": "https://gizmostorageprod.blob.core.windows.net/tenant-logos/1622760771134-LensCrafters_Logo_Black.jpg"}], "LeSportsac": [{"name": "LeSportsac", "hours": "10am – 8pm", "location": "Mall Level 2, near Macy's", "logo": "https://placewise.imgix.net/images/api/retailhubjs/65303a344cb9c77b79750d823c934872"}], "Lids": [{"name": "Lids", "hours": "11am – 7pm", "location": "Street Level 1, near Centerstage", "logo": "https://placewise.imgix.net/images/api/stores/900.svg"}, {"name": "Lids", "hours": "11am – 7pm", "location": "Level 3, in the Ewa Wing", "logo": "https://placewise.imgix.net/images/api/stores/900.svg"}], "Liliha Bakery": [{"name": "Liliha Bakery", "hours": "7am – 8pm", "location": "Inside macy's", "logo": "/etc/clientlibs/ggpcorp-malls/assets/directory/carry-out.svg"}], "Little Café Siam": [{"name": "Little Café Siam", "hours": "9:30am – 9pm", "location": "Street Level 1, near Makai Market Food Court", "logo": "/etc/clientlibs/ggpcorp-malls/assets/directory/carry-out.svg"}], "Local Motion": [{"name": "Local Motion", "hours": "10am – 8pm", "location": "Level 3, in the Ewa Wing", "logo": "https://assets.digitalservices.ggp.com/content/dam/rw-2/images/tenant-images/tenant-logos/local-motion.png"}], "Locker Room by Lids": [{"name": "Locker Room by Lids", "hours": "11am – 7pm", "location": "Street Level 1, near Macy's", "logo": "https://placewise.imgix.net/images/api/stores/2137048183.svg"}], "Loewe": [{"name": "Loewe", "hours": "11am – 7pm", "location": "Mall Level 2, near Macy's", "logo": "https://assets.digitalservices.ggp.com/content/dam/rw-2/images/tenant-images/tenant-logos/longines-logo-553x260-v1.png"}], "Longines": [{"name": "Longines", "hours": "11am – 7pm", "location": "Mall Level 2, near Neiman Marcus", "logo": "https://assets.digitalservices.ggp.com/content/dam/rw-2/images/tenant-images/tenant-logos/longines-logo-553x260-v1.png"}], "Longs Drugs": [{"name": "Longs Drugs", "hours": "6am – 11pm", "location": "Mall Level 2, in the Ewa Wing", "logo": "https://placewise.imgix.net/images/api/retailhubjs/db6359b416299d2fedd19a061720335f.png"}], "Louis Vuitton": [{"name": "Louis Vuitton", "hours": "10am – 8pm", "location": "Level 3, near Neiman Marcus", "logo": "https://placewise.imgix.net/images/api/stores/901.svg"}], "Love At Dawn": [{"name": "Love At Dawn", "hours": "10am – 6:30pm", "location": "Mall Level 2, near Target", "logo": "https://gizmostorageprod.blob.core.windows.net/tenant-logos/1617406505608-Main-PMS%20186-Horizontal.png"}], "LUCKY STRIKE SOCIAL": [{"name": "LUCKY STRIKE SOCIAL", "hours": "2pm – Midnight", "location": "Level 3, near Macy's", "logo": "https://gizmostorageprod.blob.core.windows.net/tenant-logos/1617406505608-Main-PMS%20186-Horizontal.png"}], "Lulu Hawaii": [{"name": "Lulu Hawaii", "hours": "10am – 8pm", "location": "Mall Level 2, near Macy's", "logo": "https://placewise.imgix.net/images/api/retailhubjs/c70a1f1f3f4b9d07fb6a8bb353871e7c"}], "Lululemon Athletica": [{"name": "Lululemon Athletica", "hours": "10am – 8pm", "location": "Mall Level 2, in the Ewa Wing", "logo": "https://placewise.imgix.net/images/api/retailhubjs/c70a1f1f3f4b9d07fb6a8bb353871e7c"}], "LUPICIA": [{"name": "LUPICIA", "hours": "11am – 6pm", "location": "Street Level 1, near Centerstage", "logo": "https://assets.digitalservices.ggp.com/content/dam/rw-2/images/tenant-images/tenant-logos/lupicia-logo-553x260-v1.png"}], "Lyca Mobile": [{"name": "Lyca Mobile", "hours": "11am – 7pm", "location": "Mall Level 2, in the Ewa Wing", "logo": "https://placewise.imgix.net/images/api/retailhubjs/8cf9aebfb241b16fe45cc173ec966468.jpeg"}], "M.A.C": [{"name": "M.A.C", "hours": "11am – 7pm", "location": "Mall Level 2, in the Ewa Wing", "logo": "https://placewise.imgix.net/images/api/retailhubjs/8cf9aebfb241b16fe45cc173ec966468.jpeg"}], "macy's": [{"name": "macy's", "hours": "9:30am – 8pm", "location": "Anchor Store", "logo": "https://placewise.imgix.net/images/api/stores/222.svg"}], "Madame Saigon Inc": [{"name": "Madame Saigon Inc", "hours": "10am – 8pm", "location": "Street Level 1, near Makai Market Food Court", "logo": "https://placewise.imgix.net/images/api/retailhubjs/eee58f53e17a2ef6401fed29624e66c3.svg"}], "Madewell": [{"name": "Madewell", "hours": "10am – 8pm", "location": "Mall Level 2, in the Ewa Wing", "logo": "https://placewise.imgix.net/images/api/retailhubjs/eee58f53e17a2ef6401fed29624e66c3.svg"}], "Madsci Lab": [{"name": "Madsci Lab", "hours": "10am – 8pm", "location": "Mall Level 2, near Target", "logo": "/etc/clientlibs/ggpcorp-malls/assets/directory/carry-out.svg"}], "Mahaloha Burger": [{"name": "Mahaloha Burger", "hours": "10am – 8pm", "location": "Mall Level 2, in The Lanai", "logo": "/etc/clientlibs/ggpcorp-malls/assets/directory/carry-out.svg"}], "Maison Margiela Paris": [{"name": "Maison Margiela Paris", "hours": "12pm – Midnight", "location": "Mall Level 2, near Neiman Marcus", "logo": "https://gizmostorageprod.blob.core.windows.net/tenant-logos/1662689149841-Maison_Margiela_logo.png"}], "Mai Tai's": [{"name": "Mai Tai's", "hours": "12pm – Midnight", "location": "Ho'okipa Terrace Upper Level 4, near Macy's", "logo": "https://gizmostorageprod.blob.core.windows.net/tenant-logos/1611958759854-Mai%20Tais%20logo%20translucent.png"}], "mālie": [{"name": "mālie", "hours": "10am – 8pm", "location": "Level 3, in the Ewa Wing", "logo": "/etc/clientlibs/ggpcorp-malls/assets/directory/curbside-white.svg"}], "Mall Management": [{"name": "Mall Management", "hours": "10am – 7pm", "location": "Street Level 1, near Macy's", "logo": "/etc/clientlibs/ggpcorp-malls/assets/directory/carry-out.svg"}], "Mama's Spaghetti House": [{"name": "Mama's Spaghetti House", "hours": "10am – 7pm", "location": "Street Level 1, near Makai Market Food Court", "logo": "/etc/clientlibs/ggpcorp-malls/assets/directory/carry-out.svg"}], "Mama Pho": [{"name": "Mama Pho", "hours": "11am – 9pm", "location": "Ho'okipa Terrace Upper Level 4, near Macy's", "logo": "/etc/clientlibs/ggpcorp-malls/assets/directory/carry-out.svg"}], "MANAOLA HAWAII": [{"name": "MANAOLA HAWAII", "hours": "10am – 7pm", "location": "Street Level 1, near Centerstage", "logo": "https://assets.digitalservices.ggp.com/content/dam/rw-2/images/tenant-images/tenant-logos/Manaola-logo.jpg"}], "Mana Sandwiches": [{"name": "Mana Sandwiches", "hours": "9am – 6pm", "location": "Mall Level 2, in The Lanai", "logo": "/etc/clientlibs/ggpcorp-malls/assets/directory/carry-out.svg"}], "Mango Mango Dessert": [{"name": "Mango Mango Dessert", "hours": "11am – 9pm", "location": "Level 3, in the Ewa Wing", "logo": "/etc/clientlibs/ggpcorp-malls/assets/directory/carry-out.svg"}], "Mani Pedi Spa": [{"name": "Mani Pedi Spa", "hours": "10am – 8pm", "location": "Mall Level 2, near Macy's", "logo": "/etc/clientlibs/ggpcorp-malls/assets/directory/curbside-white.svg"}], "Manna Myon": [{"name": "Manna Myon", "hours": "10am – 7:30pm", "location": "Street Level 1, in Makai Market Food Court", "logo": "/etc/clientlibs/ggpcorp-malls/assets/directory/carry-out.svg"}], "Mariposa Restaurant": [{"name": "Mariposa Restaurant", "hours": "11:30am – 6pm", "location": "Inside Neiman Marcus", "logo": "https://assets.digitalservices.ggp.com/content/dam/rw-2/images/tenant-images/tenant-logos/mariposa.png"}], "Marshalls": [{"name": "Marshalls", "hours": "9:30am – 9:30pm", "location": "Street Level 1, in the Ewa Wing", "logo": "https://placewise.imgix.net/images/api/stores/3550.svg"}], "Martin & MacArthur": [{"name": "Martin & MacArthur", "hours": "11am – 7pm", "location": "Mall Level 2, near Macy's", "logo": "/etc/clientlibs/ggpcorp-malls/assets/directory/curbside-white.svg"}], "Massage Palace": [{"name": "Massage Palace", "hours": "10am – 9pm", "location": "Street Level 1, in the Ewa Wing", "logo": "https://gizmostorageprod.blob.core.windows.net/tenant-logos/1638411410564-logo_mauidivers_stacked_blue_02.png"}], "Maui Divers Jewelry": [{"name": "Maui Divers Jewelry", "hours": "10am – 8pm", "location": "Mall Level 2, near Macy's", "logo": "https://gizmostorageprod.blob.core.windows.net/tenant-logos/1638411410564-logo_mauidivers_stacked_blue_02.png"}], "Meet Fresh": [{"name": "Meet Fresh", "hours": "12pm – 10pm", "location": "Street Level 1", "logo": "https://assets.digitalservices.ggp.com/content/dam/rw-2/images/tenant-images/tenant-logos/mermaid-bar-logo.png"}], "Mermaid Bar": [{"name": "Mermaid Bar", "hours": "11am – 3:30pm", "location": "Mall Level 2, near Macy's", "logo": "https://assets.digitalservices.ggp.com/content/dam/rw-2/images/tenant-images/tenant-logos/mermaid-bar-logo.png"}], "Michael Kors": [{"name": "Michael Kors", "hours": "10am – 8pm", "location": "Mall Level 2, near Macy's", "logo": "https://placewise.imgix.net/images/api/stores/2137039706.svg"}], "Mika": [{"name": "Mika", "hours": "10am – 7pm", "location": "Mall Level 2, near Macy's", "logo": "/etc/clientlibs/ggpcorp-malls/assets/directory/carry-out.svg"}], "Minamoto Kitchoan": [{"name": "Minamoto Kitchoan", "hours": "10am – 7pm", "location": "Street Level 1, near Centerstage", "logo": "/etc/clientlibs/ggpcorp-malls/assets/directory/carry-out.svg"}], "Miu Miu": [{"name": "Miu Miu", "hours": "10am – 8pm", "location": "Mall Level 2, in the Ewa Wing", "logo": "https://gizmostorageprod.blob.core.windows.net/tenant-logos/1581815758592-miu_miu-logo.jpg"}], "Moncler": [{"name": "Moncler", "hours": "10am – 8pm", "location": "Mall Level 2, in the Ewa Wing", "logo": "https://assets.digitalservices.ggp.com/content/dam/rw-2/images/tenant-images/tenant-logos/moncler-logo-553x260-v1.png"}], "Montblanc": [{"name": "Montblanc", "hours": "11am – 7pm", "location": "Mall Level 2, near Neiman Marcus", "logo": "https://gizmostorageprod.blob.core.windows.net/tenant-logos/1663771368109-MB%20Logo%20with%20Snowcap%20Positive%20(1)1024_1.jpg"}], "Moomin Shop Hawaii": [{"name": "Moomin Shop Hawaii", "hours": "11am – 7pm", "location": "Level 3, in the Ewa Wing", "logo": "/etc/clientlibs/ggpcorp-malls/assets/directory/curbside-white.svg"}], "Morphe": [{"name": "Morphe", "hours": "4pm – 9pm", "location": "Level 3, near Neiman Marcus", "logo": "https://assets.digitalservices.ggp.com/content/dam/rw-2/images/tenant-images/tenant-logos/morphe-logo-553x260-v1.png"}], "Morton's The Steakhouse": [{"name": "Morton's The Steakhouse", "hours": "4pm – 9pm", "location": "Mall Level 2", "logo": "/etc/clientlibs/ggpcorp-malls/assets/directory/carry-out.svg"}], "Mr. Cow Hawaii": [{"name": "Mr. Cow Hawaii", "hours": "9am – 7pm", "location": "Street Level 1, near Makai Market Food Court", "logo": "https://gizmostorageprod.blob.core.windows.net/tenant-logos/1651708815528-Mr%20Cow%20Logo%2010222.jpg"}], "Musubi Cafe Iyasume": [{"name": "Musubi Cafe Iyasume", "hours": "9am – 7pm", "location": "Mall Level 2, in The Lanai", "logo": "/etc/clientlibs/ggpcorp-malls/assets/directory/carry-out.svg"}], "Nagasaki Champon By Ringer Hut": [{"name": "Nagasaki Champon By Ringer Hut", "hours": "11am – 7:30pm", "location": "Street Level 1, near Makai Market Food Court", "logo": "/etc/clientlibs/ggpcorp-malls/assets/directory/carry-out.svg"}], "Na Hoku": [{"name": "Na Hoku", "hours": "10am – 8pm", "location": "Mall Level 2, in the Ewa Wing", "logo": "/etc/clientlibs/ggpcorp-malls/assets/directory/curbside-white.svg"}], "Naniwa-Ya Ramen": [{"name": "Naniwa-Ya Ramen", "hours": "9am – 9pm", "location": "Street Level 1, near Makai Market Food Court", "logo": "https://gizmostorageprod.blob.core.windows.net/tenant-logos/1644957597424-NR%20Logo-2.jpg"}], "Nature Republic": [{"name": "Nature Republic", "hours": "11am – 6pm", "location": "Level 3, in the Ewa Wing", "logo": "https://gizmostorageprod.blob.core.windows.net/tenant-logos/1644957597424-NR%20Logo-2.jpg"}], "Neiman Marcus": [{"name": "Neiman Marcus", "hours": "11am – 6pm", "location": "Anchor Store", "logo": "https://placewise.imgix.net/images/api/stores/1110.svg"}], "NET Electronics": [{"name": "NET Electronics", "hours": "8am – 8pm", "location": "Street Level 1, near Centerstage", "logo": "https://gizmostorageprod.blob.core.windows.net/tenant-logos/1647379072894-05-21%20Niu%20Health%20-%20Urgent%20Care%20Plus%20Sublogo%20v1%20-%20RGB%20Vertical.png"}], "Niu Health": [{"name": "Niu Health", "hours": "8am – 8pm", "location": "Mall Level 2, near Mauka Wing", "logo": "https://gizmostorageprod.blob.core.windows.net/tenant-logos/1647379072894-05-21%20Niu%20Health%20-%20Urgent%20Care%20Plus%20Sublogo%20v1%20-%20RGB%20Vertical.png"}], "No'eau Designers": [{"name": "No'eau Designers", "hours": "10am – 8pm", "location": "Level 3", "logo": "https://gizmostorageprod.blob.core.windows.net/tenant-logos/1649184076308-Logo.jpg"}], "Nordstrom": [{"name": "Nordstrom", "hours": "10am – 9pm", "location": "Anchor Store", "logo": "https://assets.digitalservices.ggp.com/content/dam/ggp-digital-assets/Images/Tenant-Images/Tenant-Logos/nordstrom-bw-vector.svg/jcr:content/renditions/original.svg"}], "The North Face": [{"name": "The North Face", "hours": "10am – 8pm", "location": "Level 3, in the Ewa Wing", "logo": "https://placewise.imgix.net/images/api/stores/1139.svg"}], "Oakley": [{"name": "Oakley", "hours": "10am – 8pm", "location": "Mall Level 2, in the Ewa Wing", "logo": "/etc/clientlibs/ggpcorp-malls/assets/directory/curbside-white.svg"}], "Ocean Creations": [{"name": "Ocean Creations", "hours": "10am – 8pm", "location": "Level 3, in the Ewa Wing", "logo": "https://gizmostorageprod.blob.core.windows.net/tenant-logos/1598311501061-old-navy.jpg"}], "Ocean Queen": [{"name": "Ocean Queen", "hours": "10am – 8pm", "location": "Street Level 1, near Centerstage", "logo": "https://gizmostorageprod.blob.core.windows.net/tenant-logos/1598311501061-old-navy.jpg"}], "Old Navy": [{"name": "Old Navy", "hours": "10am – 8pm", "location": "Anchor Store", "logo": "https://gizmostorageprod.blob.core.windows.net/tenant-logos/1598311501061-old-navy.jpg"}], "Olive Garden": [{"name": "Olive Garden", "hours": "11am – 10pm", "location": "Ho'okipa Terrace Upper Level 4, near Macy's", "logo": "/etc/clientlibs/ggpcorp-malls/assets/directory/carry-out.svg"}], "OMEGA": [{"name": "OMEGA", "hours": "11am – 7pm", "location": "Mall Level 2, near Macy's", "logo": "https://placewise.imgix.net/images/api/retailhubjs/e9ee6f494d191d393bec2902d357a454.jpeg"}], "PacSun": [{"name": "PacSun", "hours": "11am – 7pm", "location": "Level 3, near Macy's", "logo": "https://placewise.imgix.net/images/api/stores/2137031778.svg"}], "Panda Express": [{"name": "Panda Express", "hours": "10am – 8pm", "location": "Street Level 1, near Makai Market Food Court", "logo": "/etc/clientlibs/ggpcorp-malls/assets/directory/carry-out.svg"}], "PANDORA": [{"name": "PANDORA", "hours": "11am – 7pm", "location": "Mall Level 2, near Target", "logo": "https://placewise.imgix.net/images/api/stores/2137019886.svg"}], "Papaya": [{"name": "Papaya", "hours": "11am – 7pm", "location": "Level 3, in the Ewa Wing", "logo": "https://placewise.imgix.net/images/api/retailhubjs/25d55ffc0fcbe33387374071b4e8d064"}], "Paris Miki": [{"name": "Paris Miki", "hours": "10am – 7pm", "location": "Street Level 1, near Macy's", "logo": "https://gizmostorageprod.blob.core.windows.net/tenant-logos/1581817440517-logo_basic_parismiki.png"}], "Patisserie La Palme D'or": [{"name": "Patisserie La Palme D'or", "hours": "9:30am – 7pm", "location": "Mall Level 2, near Macy's", "logo": "/etc/clientlibs/ggpcorp-malls/assets/directory/carry-out.svg"}], "Pearl Plus": [{"name": "Pearl Plus", "hours": "Midnight – 10pm", "location": "Mall Level 2, near Target", "logo": "https://gizmostorageprod.blob.core.windows.net/tenant-logos/1622248999134-Logo.png"}], "Pink Box": [{"name": "Pink Box", "hours": "Midnight – 10pm", "location": "Mall Level 2, near Target", "logo": "https://gizmostorageprod.blob.core.windows.net/tenant-logos/1622248999134-Logo.png"}], "Pipe Dreams Surf Co": [{"name": "Pipe Dreams Surf Co", "hours": "Midnight – 10pm", "location": "Street Level 1, near Centerstage", "logo": "https://gizmostorageprod.blob.core.windows.net/tenant-logos/1622248999134-Logo.png"}], "Planet Fitness": [{"name": "Planet Fitness", "hours": "Midnight – 10pm", "location": "Street Level 1, near Saks Fifth Avenue OFF 5th", "logo": "https://placewise.imgix.net/images/api/retailhubjs/9c42bfed57038f5b63e356358cc4b08f"}], "Poke & Box": [{"name": "Poke & Box", "hours": "11am – 7pm", "location": "Street Level 1, in Makai Market Food Court", "logo": "/etc/clientlibs/ggpcorp-malls/assets/directory/carry-out.svg"}], "Popoki Massage": [{"name": "Popoki Massage", "hours": "10am – 9pm", "location": "Street Level 1, near Macy's", "logo": "/etc/clientlibs/ggpcorp-malls/assets/directory/curbside-white.svg"}], "Prada": [{"name": "Prada", "hours": "10am – 8pm", "location": "Mall Level 2, near Neiman Marcus", "logo": "https://placewise.imgix.net/images/api/retailhubjs/2b9a3e6a7cacf9e5d627e0b11fd8a1ee.png"}, {"name": "Prada", "hours": "10am – 8pm", "location": "Mall Level 2, in the Ewa Wing", "logo": "https://placewise.imgix.net/images/api/retailhubjs/2b9a3e6a7cacf9e5d627e0b11fd8a1ee.png"}], "Premier Barbershop": [{"name": "Premier Barbershop", "hours": "9:30am – 7pm", "location": "Mall Level 2, near Macy's", "logo": "https://www.alamoanacenter.com/content/dam/rw-2/images/tenant-images/tenant-logos/premier-barbershop-logo-553x260-v2.png"}], "Pressed": [{"name": "Pressed", "hours": "8am – 9pm", "location": "Street Level 1, in the Ewa Wing", "logo": "/etc/clientlibs/ggpcorp-malls/assets/directory/carry-out.svg"}], "Pups Of War": [{"name": "Pups Of War", "hours": "11am – 7pm", "location": "Level 3, in the Ewa Wing", "logo": "/etc/clientlibs/ggpcorp-malls/assets/directory/carry-out.svg"}], "Raising Cane's": [{"name": "Raising Cane's", "hours": "9am – 8pm", "location": "Street Level 1, near Makai Market Food Court", "logo": "/etc/clientlibs/ggpcorp-malls/assets/directory/carry-out.svg"}], "Rakuten Card Lounge": [{"name": "Rakuten Card Lounge", "hours": "10am – 6pm", "location": "Level 3, in the Ewa Wing", "logo": "/etc/clientlibs/ggpcorp-malls/assets/directory/carry-out.svg"}], "Ramen Bario": [{"name": "Ramen Bario", "hours": "11am – 7pm", "location": "Street Level 1, near Makai Market Food Court", "logo": "/etc/clientlibs/ggpcorp-malls/assets/directory/carry-out.svg"}], "Reformation": [{"name": "Reformation", "hours": "10am – 8pm", "location": "Mall Level 2, near Macy's", "logo": "https://gizmostorageprod.blob.core.windows.net/tenant-logos/1658536892884-reformation-logo-01.jpg"}], "Reyn Spooner": [{"name": "Reyn Spooner", "hours": "10am – 8pm", "location": "Mall Level 2, near Macy's", "logo": "https://gizmostorageprod.blob.core.windows.net/tenant-logos/1581739122871-ReynSpooner.svg"}], "Rimowa": [{"name": "Rimowa", "hours": "10am – 8pm", "location": "Mall Level 2, in the Ewa Wing", "logo": "https://assets.digitalservices.ggp.com/content/dam/rw-2/images/tenant-images/tenant-logos/rimowa-logo-553x260-v1.png"}], "Rip Curl": [{"name": "Rip Curl", "hours": "10am – 8pm", "location": "Level 3, in the Ewa Wing", "logo": "https://placewise.imgix.net/images/api/retailhubjs/251bf2d7769fa510c41dc011f2e80735.gif"}], "Rokkaku Hamakatsu": [{"name": "Rokkaku Hamakatsu", "hours": "11am – 7pm", "location": "Mall Level 2, in the Ewa Wing", "logo": "/etc/clientlibs/ggpcorp-malls/assets/directory/carry-out.svg"}], "Rolex": [{"name": "Rolex", "hours": "11am – 9pm", "location": "Mall Level 2, near Macy's", "logo": "https://gizmostorageprod.blob.core.windows.net/tenant-logos/1663101199998-Retailer_plaque_240x120-us.jpg"}], "Romano's Macaroni Grill": [{"name": "Romano's Macaroni Grill", "hours": "11am – 9pm", "location": "Ho'okipa Terrace Upper Level 4, near Macy's", "logo": "/etc/clientlibs/ggpcorp-malls/assets/directory/carry-out.svg"}], "Ross Dress For Less": [{"name": "Ross Dress For Less", "hours": "9am – 10pm", "location": "Street Level 1, near Old Navy", "logo": "https://placewise.imgix.net/images/api/stores/4071.svg"}], "Royale": [{"name": "Royale", "hours": "11am – 8pm", "location": "Mall Level 2", "logo": "https://placewise.imgix.net/images/api/retailhubjs/d2d9f93c7bff2b67fb21f755a295d64d"}], "Ruscello": [{"name": "Ruscello", "hours": "11am – 8pm", "location": "Inside Nordstrom", "logo": "/etc/clientlibs/ggpcorp-malls/assets/directory/carry-out.svg"}], "Saint Laurent": [{"name": "Saint Laurent", "hours": "11am – 7pm", "location": "Mall Level 2, near Macy's", "logo": "https://assets.digitalservices.ggp.com/content/dam/ggp-digital-assets/Images/Tenant-Images/Tenant-Logos/saint-laurent-logo-v2.png/jcr:content/renditions/original.png"}], "Saks Fifth Avenue OFF 5TH": [{"name": "Saks Fifth Avenue OFF 5TH", "hours": "10am – 8pm", "location": "Anchor Store", "logo": "https://placewise.imgix.net/images/api/retailhubjs/b6635b648d8cd57d8dc8b58400a059f1.png"}], "Salvatore Ferragamo": [{"name": "Salvatore Ferragamo", "hours": "11am – 8pm", "location": "Mall Level 2, near Neiman Marcus", "logo": "https://s3.amazonaws.com/placewisesitecontent/images/api/stores/2137031822.svg"}], "San Lorenzo Bikinis": [{"name": "San Lorenzo Bikinis", "hours": "11am – 7pm", "location": "Level 3, in the Ewa Wing", "logo": "https://assets.digitalservices.ggp.com/content/dam/rw-2/images/tenant-images/tenant-logos/san-lorenzo-logo-553x260-v1.png"}], "Sears Appliances And Mattresses": [{"name": "Sears Appliances And Mattresses", "hours": "10am – 7pm", "location": "Street Level 1, near Saks Fifth Avenue OFF 5th", "logo": "https://gizmostorageprod.blob.core.windows.net/tenant-logos/1612300714395-Sears_Mattresses&AppliancesExteriorLogo_K.jpg"}], "Security Office": [{"name": "Security Office", "hours": "10am – 8pm", "location": "Street Level 1, near Macy's", "logo": "https://placewise.imgix.net/images/api/stores/242.svg"}], "See's Candies": [{"name": "See's Candies", "hours": "10am – 8pm", "location": "Street Level 1, near Macy's", "logo": "https://placewise.imgix.net/images/api/stores/242.svg"}], "Señor Pepé": [{"name": "Señor Pepé", "hours": "11am – 7pm", "location": "Street Level 1, near Makai Market Food Court", "logo": "https://gizmostorageprod.blob.core.windows.net/tenant-logos/1597707389497-senorpepe_logo.png"}], "Seoul Mix": [{"name": "Seoul Mix", "hours": "9am – 7pm", "location": "Mall Level 2, in The Lanai", "logo": "/etc/clientlibs/ggpcorp-malls/assets/directory/carry-out.svg"}], "Sephora": [{"name": "Sephora", "hours": "10am – 8pm", "location": "Mall Level 2, in the Ewa Wing", "logo": "https://placewise.imgix.net/images/api/retailhubjs/a11151fedd146744181733c3a955e72d.svg"}], "Sera's Surf 'N Shore": [{"name": "Sera's Surf 'N Shore", "hours": "11am – 6pm", "location": "Street Level 1, in the Ewa Wing", "logo": "https://assets.digitalservices.ggp.com/content/dam/rw-2/images/tenant-images/tenant-logos/shabuya-logo-553x260-v1.png"}], "Shabuya": [{"name": "Shabuya", "hours": "11am – 10pm", "location": "Mall Level 2, in the Ewa Wing", "logo": "https://assets.digitalservices.ggp.com/content/dam/rw-2/images/tenant-images/tenant-logos/shabuya-logo-553x260-v1.png"}], "Sharetea": [{"name": "Sharetea", "hours": "10am – 7pm", "location": "Mall Level 2, in The Lanai", "logo": "/etc/clientlibs/ggpcorp-malls/assets/directory/carry-out.svg"}], "Singmatei": [{"name": "Singmatei", "hours": "10am – 7pm", "location": "Street Level 1, in Makai Market Food Court", "logo": "/etc/clientlibs/ggpcorp-malls/assets/directory/carry-out.svg"}], "Skechers": [{"name": "Skechers", "hours": "10am – 7pm", "location": "Level 3, in the Ewa Wing", "logo": "https://placewise.imgix.net/images/api/stores/4287.svg"}], "Somisomi Soft Serve & Taiyaki": [{"name": "Somisomi Soft Serve & Taiyaki", "hours": "11am – 8pm", "location": "Street Level 1, near Makai Market Food Court", "logo": "/etc/clientlibs/ggpcorp-malls/assets/directory/carry-out.svg"}], "Spectrum": [{"name": "Spectrum", "hours": "10am – 6pm", "location": "Street Level 1, in the Ewa Wing", "logo": "https://placewise.imgix.net/images/api/retailhubjs/fcec6ed13969051a0fcc73bc7eb1d445"}], "Sports Box": [{"name": "Sports Box", "hours": "10am – 8pm", "location": "Mall Level 2, near Target", "logo": "https://gizmostorageprod.blob.core.windows.net/tenant-logos/1648154654467-Sports%20Box%20Logo.JPG"}], "SP Shoe Palace": [{"name": "SP Shoe Palace", "hours": "10am – 8pm", "location": "Level 3, near Macy's", "logo": "https://placewise.imgix.net/images/api/retailhubjs/f956de69f13fb5833f76d01b4c38c249"}], "Squishable": [{"name": "Squishable", "hours": "10am – 8pm", "location": "Level 3, near Neiman Marcus", "logo": "https://placewise.imgix.net/images/api/retailhubjs/292148fdfa40fb57e2a05ff5660350a5"}], "Starbucks": [{"name": "Starbucks", "hours": "10am – 7pm", "location": "Street Level 1, in the Ewa Wing", "logo": "/etc/clientlibs/ggpcorp-malls/assets/directory/carry-out.svg"}, {"name": "Starbucks", "hours": "10am – 7pm", "location": "Inside macy's", "logo": "https://placewise.imgix.net/images/api/stores/5170.svg"}, {"name": "Starbucks", "hours": "10am – 7pm", "location": "Inside Target", "logo": "https://placewise.imgix.net/images/api/stores/5170.svg"}], "Steak & Fish Company": [{"name": "Steak & Fish Company", "hours": "10am – 7pm", "location": "Street Level 1, in Makai Market Food Court", "logo": "https://gizmostorageprod.blob.core.windows.net/tenant-logos/1581818177874-Steak-and-Fish-Company-Logo.jpg"}], "Steak Teppei": [{"name": "Steak Teppei", "hours": "11am – 7pm", "location": "Street Level 1, near Makai Market Food Court", "logo": "/etc/clientlibs/ggpcorp-malls/assets/directory/carry-out.svg"}], "Sugar Sugar Hawaii": [{"name": "Sugar Sugar Hawaii", "hours": "10am – 8pm", "location": "Level 3, in the Ewa Wing", "logo": "https://placewise.imgix.net/images/api/stores/584.svg"}], "Sunglass Hut": [{"name": "Sunglass Hut", "hours": "10am – 8pm", "location": "Street Level 1, near Centerstage", "logo": "https://placewise.imgix.net/images/api/stores/584.svg"}, {"name": "Sunglass Hut", "hours": "8am – 6pm", "location": "Level 3, near Target", "logo": "https://placewise.imgix.net/images/api/stores/584.svg"}, {"name": "Sunglass Hut", "hours": "8am – 6pm", "location": "Level 3, in the Ewa Wing", "logo": "https://placewise.imgix.net/images/api/stores/584.svg"}], "Sunrise Shack": [{"name": "Sunrise Shack", "hours": "8am – 6pm", "location": "Street Level 1, near Centerstage", "logo": "https://gizmostorageprod.blob.core.windows.net/tenant-logos/1622657582480-surfersbakery_logo%20(1).jpg"}], "Surfers Bakery": [{"name": "Surfers Bakery", "hours": "8am – 6pm", "location": "Street Level 1, in the Ewa Wing", "logo": "https://gizmostorageprod.blob.core.windows.net/tenant-logos/1622657582480-surfersbakery_logo%20(1).jpg"}], "Swarovski": [{"name": "Swarovski", "hours": "11am – 7pm", "location": "Level 3, near Neiman Marcus", "logo": "https://placewise.imgix.net/images/api/retailhubjs/8a9d9a28c3bb16f50cd4f075faad302d"}], "Swatch": [{"name": "Swatch", "hours": "10am – 8pm", "location": "Street Level 1, near Centerstage", "logo": "https://placewise.imgix.net/images/api/retailhubjs/030b2d7cc3705f4f4945e31ebf8eb66d"}], "Sweet Honey Hawaii": [{"name": "Sweet Honey Hawaii", "hours": "11am – 3pm; 4pm – 9:30pm", "location": "Level 3, in the Ewa Wing", "logo": "/etc/clientlibs/ggpcorp-malls/assets/directory/carry-out.svg"}], "Sxy Szechuan": [{"name": "Sxy Szechuan", "hours": "11am – 3pm; 4pm – 9:30pm", "location": "Mall Level 2, in the Ewa Wing", "logo": "/etc/clientlibs/ggpcorp-malls/assets/directory/carry-out.svg"}], "T&C Surf Designs": [{"name": "T&C Surf Designs", "hours": "10am – 8pm", "location": "Level 3, in the Ewa Wing", "logo": "https://assets.digitalservices.ggp.com/content/dam/rw-2/images/tenant-images/tenant-logos/surf-designs-logo-553x260-v1.png"}], "Tanaka Of Tokyo": [{"name": "Tanaka Of Tokyo", "hours": "5pm – 9pm", "location": "Ho'okipa Terrace Upper Level 4, near Macy's", "logo": "/etc/clientlibs/ggpcorp-malls/assets/directory/carry-out.svg"}], "Tanaka Ramen & Izakaya": [{"name": "Tanaka Ramen & Izakaya", "hours": "11am – 9:30pm", "location": "Mall Level 2, in the Ewa Wing", "logo": "/etc/clientlibs/ggpcorp-malls/assets/directory/carry-out.svg"}], "Tanoa": [{"name": "Tanoa", "hours": "10am – 8pm", "location": "Level 3, in the Ewa Wing", "logo": "https://gizmostorageprod.blob.core.windows.net/tenant-logos/1652128897602-Logo%20and%20name%202.jpg"}], "Target": [{"name": "Target", "hours": "8am – 10pm", "location": "Anchor Store", "logo": "https://placewise.imgix.net/images/api/stores/2544.svg"}], "Teapresso Bar": [{"name": "Teapresso Bar", "hours": "10am – 7pm", "location": "Street Level 1, near Centerstage", "logo": "https://gizmostorageprod.blob.core.windows.net/tenant-logos/1662689771253-Teapresso%20Bar%20Logo.png"}], "Tech Armor": [{"name": "Tech Armor", "hours": "10am – 7pm", "location": "Mall Level 2, in the Ewa Wing", "logo": "https://s3.amazonaws.com/placewisesitecontent/images/api/stores/2137046709.svg"}, {"name": "Tech Armor", "hours": "11am – 7pm", "location": "Mall Level 2, in the Ewa Wing", "logo": "https://s3.amazonaws.com/placewisesitecontent/images/api/stores/2137046709.svg"}], "Ted Baker London": [{"name": "Ted Baker London", "hours": "11am – 7pm", "location": "Mall Level 2, in the Ewa Wing", "logo": "https://s3.amazonaws.com/placewisesitecontent/images/api/stores/2137046709.svg"}], "Teppanyaki Farmer": [{"name": "Teppanyaki Farmer", "hours": "11am – 7pm", "location": "Mall Level 2, in The Lanai", "logo": "/etc/clientlibs/ggpcorp-malls/assets/directory/carry-out.svg"}], "Territorial Savings Bank": [{"name": "Territorial Savings Bank", "hours": "9am – 5pm", "location": "Street Level 1, in the Ewa Wing", "logo": "https://assets.digitalservices.ggp.com/content/dam/rw-2/images/tenant-images/tenant-logos/territorial-bank-logo-553x260-v1.png"}], "Tesla": [{"name": "Tesla", "hours": "11am – 7pm", "location": "Mall Level 2, in the Ewa Wing", "logo": "https://gizmostorageprod.blob.core.windows.net/tenant-logos/1581739732249-Tesla.svg"}], "Tiffany & Co.": [{"name": "Tiffany & Co.", "hours": "11am – 7pm", "location": "Mall Level 2, near Neiman Marcus", "logo": "https://placewise.imgix.net/images/api/stores/924.svg"}], "Tiger Sugar": [{"name": "Tiger Sugar", "hours": "11am – 9pm", "location": "Mall Level 2, near Target", "logo": "https://gizmostorageprod.blob.core.windows.net/tenant-logos/1650487282961-LOGO_直%20(1).png"}], "T-Mobile": [{"name": "T-Mobile", "hours": "10am – 8pm", "location": "Level 3, in the Ewa Wing", "logo": "https://placewise.imgix.net/images/api/stores/1250.svg"}], "Tod's": [{"name": "Tod's", "hours": "10am – 7pm", "location": "Mall Level 2, in the Ewa Wing", "logo": "https://gizmostorageprod.blob.core.windows.net/tenant-logos/1581817873976-Tods-Logo.jpg"}], "Tommy Bahama": [{"name": "Tommy Bahama", "hours": "10am – 8pm", "location": "Mall Level 2, near Target", "logo": "https://placewise.imgix.net/images/api/stores/02137020401.svg"}], "Tori Richard": [{"name": "Tori Richard", "hours": "11am – 7pm", "location": "Mall Level 2, near Macy's", "logo": "https://assets.digitalservices.ggp.com/content/dam/rw-2/images/tenant-images/tenant-logos/tori-richard-logo-553x260-v1.png"}], "Tory Burch": [{"name": "Tory Burch", "hours": "10am – 8pm", "location": "Mall Level 2, in the Ewa Wing", "logo": "https://placewise.imgix.net/images/api/stores/21370443810.svg"}], "TravisMathew": [{"name": "TravisMathew", "hours": "10am – 6pm", "location": "Mall Level 2, near Macy's", "logo": "https://gizmostorageprod.blob.core.windows.net/tenant-logos/1585179514507-True%20Friends%20logo.jpg"}], "True Friends": [{"name": "True Friends", "hours": "10am – 6pm", "location": "Street Level 1, near Centerstage", "logo": "https://gizmostorageprod.blob.core.windows.net/tenant-logos/1585179514507-True%20Friends%20logo.jpg"}], "TUMI": [{"name": "TUMI", "hours": "10am – 8pm", "location": "Mall Level 2, in the Ewa Wing", "logo": "https://placewise.imgix.net/images/api/stores/3115.svg"}], "Two Palms": [{"name": "Two Palms", "hours": "11am – 7pm", "location": "Street Level 1, near Centerstage", "logo": "/etc/clientlibs/ggpcorp-malls/assets/directory/curbside-white.svg"}], "U.S. Post Office": [{"name": "U.S. Post Office", "hours": "9am – 5pm", "location": "Street Level 1, in the Ewa Wing", "logo": "https://placewise.imgix.net/images/api/stores/2137025526.svg"}], "Uniqlo": [{"name": "Uniqlo", "hours": "10am – 8pm", "location": "Mall Level 2, and Level 3 in the Ewa Wing", "logo": "https://placewise.imgix.net/images/api/stores/2137047654.svg"}], "Valentino": [{"name": "Valentino", "hours": "11am – 7pm", "location": "Mall Level 2, in the Ewa Wing", "logo": "https://gizmostorageprod.blob.core.windows.net/tenant-logos/1582157782045-LOGO%20NEW%20JPG%20Valentino%20HIGH%20RES.gif"}], "Valextra": [{"name": "Valextra", "hours": "12pm – 6pm", "location": "Mall Level 2, near Neiman Marcus", "logo": "https://assets.digitalservices.ggp.com/content/dam/rw-2/images/tenant-images/tenant-logos/Valextra_Logo_553X260_v1.png#"}], "Vans": [{"name": "Vans", "hours": "11am – 7pm", "location": "Level 3, near Macy's", "logo": "https://placewise.imgix.net/images/api/stores/996.svg"}], "Victoria's Secret": [{"name": "Victoria's Secret", "hours": "10am – 8pm", "location": "Mall Level 2, in the Ewa Wing", "logo": "https://placewise.imgix.net/images/api/stores/588.svg"}], "Vim N\" Vigor Health & Fitness": [{"name": "Vim N\" Vigor Health & Fitness", "hours": "9am – 8pm", "location": "Street Level 1, in the Ewa Wing", "logo": "/etc/clientlibs/ggpcorp-malls/assets/directory/carry-out.svg"}], "The Vitamin Shoppe": [{"name": "The Vitamin Shoppe", "hours": "9am – 9pm", "location": "Street Level 1, in the Ewa Wing", "logo": "https://placewise.imgix.net/images/api/stores/2137029560.svg"}], "Volcanoecigs": [{"name": "Volcanoecigs", "hours": "11am – 7pm", "location": "Level 3, in the Ewa Wing", "logo": "https://gizmostorageprod.blob.core.windows.net/tenant-logos/1602900084809-TTTAsset%202.png"}], "Volcom": [{"name": "Volcom", "hours": "11am – 7pm", "location": "Level 3, in the Ewa Wing", "logo": "https://gizmostorageprod.blob.core.windows.net/tenant-logos/1602900084809-TTTAsset%202.png"}], "Wahlburgers": [{"name": "Wahlburgers", "hours": "10:30am – 10pm", "location": "Mall Level 2, in the Ewa Wing", "logo": "/etc/clientlibs/ggpcorp-malls/assets/directory/carry-out.svg"}], "Wai Nani Gifts": [{"name": "Wai Nani Gifts", "hours": "10am – 8pm", "location": "Street Level 1, near Centerstage", "logo": "https://gizmostorageprod.blob.core.windows.net/tenant-logos/1611953046696-2020-09-03.jpg"}], "Waterline Designs": [{"name": "Waterline Designs", "hours": "10am – 8pm", "location": "Street Level 1, near Centerstage", "logo": "https://gizmostorageprod.blob.core.windows.net/tenant-logos/1611953046696-2020-09-03.jpg"}], "Windsor": [{"name": "Windsor", "hours": "10am – 8pm", "location": "Level 3, in the Ewa Wing", "logo": "https://gizmostorageprod.blob.core.windows.net/tenant-logos/1611953046696-2020-09-03.jpg"}], "Xtreme 7d Dark Rides": [{"name": "Xtreme 7d Dark Rides", "hours": "3pm – 8pm", "location": "Ho'okipa Terrace Upper Level 4, near Macy's", "logo": "https://placewise.imgix.net/images/api/retailhubjs/0ec8202cdca398abb3e040cfb1de64a4"}], "Yomie's Rice X Yogurt": [{"name": "Yomie's Rice X Yogurt", "hours": "3pm – 8pm", "location": "Street Level 1, near Makai Market Food Court", "logo": "/etc/clientlibs/ggpcorp-malls/assets/directory/carry-out.svg"}], "Yummy Korean BBQ": [{"name": "Yummy Korean BBQ", "hours": "10:30am – 8pm", "location": "Street Level 1, near Makai Market Food Court", "logo": "/etc/clientlibs/ggpcorp-malls/assets/directory/carry-out.svg"}], "Zagu": [{"name": "Zagu", "hours": "11am – 9pm", "location": "Street Level 1, near Centerstage", "logo": "https://placewise.imgix.net/images/api/stores/2137039918.svg"}], "ZARA": [{"name": "ZARA", "hours": "10am – 8pm", "location": "Anchor Store", "logo": "https://placewise.imgix.net/images/api/stores/2137039918.svg"}], "Zumiez": [{"name": "Zumiez", "hours": "11am – 7pm", "location": "Level 3, in the Ewa Wing", "logo": "https://placewise.imgix.net/images/api/retailhubjs/ff8a1fa869af18da93c8cfae76448959.jpeg"}]}